City_ID,City,Lat,Lng,Max Temp,Humidity,Cloudiness,Wind Speed,Country,Date
0,tiksi,71.6366,128.8685,-24.95,96,100,4.59,RU,"Dec 05, 2022, Mon, 17:00"
1,souillac,44.898,1.4694,2.29,82,67,1.63,FR,"Dec 05, 2022, Mon, 17:00"
2,paso de carrasco,-34.864,-56.0538,27.06,61,0,5.66,UY,"Dec 05, 2022, Mon, 17:00"
3,lompoc,34.6392,-120.4579,17.74,64,0,5.66,US,"Dec 05, 2022, Mon, 17:00"
4,mahebourg,-20.4111,57.7061,24.21,88,75,4.63,MU,"Dec 05, 2022, Mon, 17:00"
5,tumannyy,26.2324,127.7631,18.76,97,100,7.72,JP,"Dec 05, 2022, Mon, 17:00"
6,nishihara,52.9244,-82.427,-21.0,71,20,6.69,CA,"Dec 05, 2022, Mon, 17:00"
7,attawapiskat,-54.8076,-68.3179,7.04,57,40,9.77,AR,"Dec 05, 2022, Mon, 17:00"
8,ushuaia,63.0156,112.4642,-19.46,86,100,4.5,RU,"Dec 05, 2022, Mon, 17:00"
9,chernyshevskiy,-23.123,-134.968,24.22,81,95,6.23,PF,"Dec 05, 2022, Mon, 17:00"
10,rikitea,-34.5331,20.0428,14.75,68,100,0.91,ZA,"Dec 05, 2022, Mon, 17:00"
11,bredasdorp,22.0747,-159.3192,24.15,89,49,0.89,US,"Dec 05, 2022, Mon, 17:00"
12,kapaa,-33.5982,26.8915,14.47,94,0,0.89,ZA,"Dec 05, 2022, Mon, 17:00"
13,port alfred,55.5204,38.7063,-11.03,82,100,2.82,RU,"Dec 05, 2022, Mon, 17:00"
14,sobolevo,8.3632,-4.4285,28.41,51,99,0.81,CI,"Dec 05, 2022, Mon, 17:00"
15,dabakala,-20.737,116.8479,26.84,43,3,5.58,AU,"Dec 05, 2022, Mon, 17:00"
16,karratha,-23.8166,-45.3687,22.88,94,100,4.64,BR,"Dec 05, 2022, Mon, 17:00"
17,ilhabela,-3.6642,152.4407,27.49,77,99,1.35,PG,"Dec 05, 2022, Mon, 17:00"
18,namatanai,-0.7472,-90.3134,25.34,89,49,2.68,EC,"Dec 05, 2022, Mon, 17:00"
19,puerto ayora,52.3472,-114.1766,-14.29,86,100,4.5,CA,"Dec 05, 2022, Mon, 17:00"
20,half moon bay,37.0634,115.0255,-1.49,44,0,1.17,CN,"Dec 05, 2022, Mon, 17:00"
21,pingxiang,5.452,7.0567,27.73,86,39,1.99,NG,"Dec 05, 2022, Mon, 17:00"
22,naze,-33.0192,27.8999,15.8,85,4,4.9,ZA,"Dec 05, 2022, Mon, 17:00"
23,east london,22.8939,-109.9201,29.12,59,0,2.57,MX,"Dec 05, 2022, Mon, 17:00"
24,sentyabrskiy,1.7959,73.3876,26.79,76,100,2.24,MV,"Dec 05, 2022, Mon, 17:00"
25,cabo san lucas,69.444,-133.0319,-26.0,64,75,10.29,CA,"Dec 05, 2022, Mon, 17:00"
26,hithadhoo,-41.1334,-71.3098,14.31,62,40,12.86,AR,"Dec 05, 2022, Mon, 17:00"
27,tuktoyaktuk,-33.8582,121.8932,16.0,81,100,2.21,AU,"Dec 05, 2022, Mon, 17:00"
28,san carlos de bariloche,37.7172,-25.4335,17.33,81,67,5.69,PT,"Dec 05, 2022, Mon, 17:00"
29,esperance,42.6512,-73.755,6.51,47,75,5.66,US,"Dec 05, 2022, Mon, 17:00"
30,novyy urgal,-37.8247,140.782,14.0,60,24,3.44,AU,"Dec 05, 2022, Mon, 17:00"
31,vila franca do campo,-33.929,18.4174,17.16,70,0,6.17,ZA,"Dec 05, 2022, Mon, 17:00"
32,albany,13.2129,-59.5227,25.46,85,40,2.57,BB,"Dec 05, 2022, Mon, 17:00"
33,mount gambier,45.803,10.0671,7.88,58,58,2.22,IT,"Dec 05, 2022, Mon, 17:00"
34,cape town,36.6211,-121.9178,15.74,80,100,4.12,US,"Dec 05, 2022, Mon, 17:00"
35,bathsheba,37.1326,-8.4551,13.71,92,46,4.46,PT,"Dec 05, 2022, Mon, 17:00"
36,castro,-9.4743,147.16,26.53,78,20,1.54,PG,"Dec 05, 2022, Mon, 17:00"
37,pacific grove,-34.4175,19.2361,12.69,68,98,1.92,ZA,"Dec 05, 2022, Mon, 17:00"
38,nizhniy baskunchak,6.8137,-58.1624,27.16,87,58,2.21,GY,"Dec 05, 2022, Mon, 17:00"
39,port moresby,49.4124,75.4705,-27.24,98,34,1.69,KZ,"Dec 05, 2022, Mon, 17:00"
40,hermanus,-46.5988,168.3434,10.52,62,73,4.17,NZ,"Dec 05, 2022, Mon, 17:00"
41,udachnyy,65.9516,111.4918,-25.07,97,100,6.95,RU,"Dec 05, 2022, Mon, 17:00"
42,karkaralinsk,-46.1927,168.8643,10.27,90,97,1.57,NZ,"Dec 05, 2022, Mon, 17:00"
43,bluff,48.7859,3.0292,2.86,98,100,1.34,FR,"Dec 05, 2022, Mon, 17:00"
44,severnyy,-9.8037,-139.0426,25.68,74,92,6.98,PF,"Dec 05, 2022, Mon, 17:00"
45,aykhal,61.6789,64.4834,-17.86,100,96,2.28,RU,"Dec 05, 2022, Mon, 17:00"
46,mataura,36.0726,-79.792,10.3,54,100,1.54,US,"Dec 05, 2022, Mon, 17:00"
47,saint-augustin,-22.4495,18.9725,22.64,16,60,4.65,NA,"Dec 05, 2022, Mon, 17:00"
48,atuona,48.5453,-109.6775,-8.83,86,100,7.2,US,"Dec 05, 2022, Mon, 17:00"
49,kommunisticheskiy,54.3127,-130.3255,2.69,74,100,3.6,CA,"Dec 05, 2022, Mon, 17:00"
50,greensboro,73.5084,80.5124,-4.92,96,100,5.9,RU,"Dec 05, 2022, Mon, 17:00"
51,gobabis,2.0349,45.3419,26.77,80,17,6.73,SO,"Dec 05, 2022, Mon, 17:00"
52,havre,-30.8249,28.9218,11.49,76,92,0.59,ZA,"Dec 05, 2022, Mon, 17:00"
53,prince rupert,19.7074,-155.0816,27.33,78,100,4.12,US,"Dec 05, 2022, Mon, 17:00"
54,dikson,46.2239,-63.2577,1.05,64,20,3.09,CA,"Dec 05, 2022, Mon, 17:00"
55,mogadishu,-25.0564,-55.9224,26.18,69,65,1.42,PY,"Dec 05, 2022, Mon, 17:00"
56,umzimvubu,-42.885,147.3343,13.6,65,75,4.63,AU,"Dec 05, 2022, Mon, 17:00"
57,hilo,54.1291,79.2367,-22.75,100,40,1.72,RU,"Dec 05, 2022, Mon, 17:00"
58,clyde river,54.7792,-127.1761,-11.82,72,20,2.06,CA,"Dec 05, 2022, Mon, 17:00"
59,yhu,-13.71,-76.203,21.94,68,0,3.6,PE,"Dec 05, 2022, Mon, 17:00"
60,hobart,24.9264,125.2411,20.02,83,75,14.92,JP,"Dec 05, 2022, Mon, 17:00"
61,leningradskiy,45.3584,-73.479,4.95,60,20,8.23,CA,"Dec 05, 2022, Mon, 17:00"
62,smithers,-21.2078,-159.775,25.03,88,100,2.57,CK,"Dec 05, 2022, Mon, 17:00"
63,pisco,-24.8826,113.6576,20.81,73,70,6.99,AU,"Dec 05, 2022, Mon, 17:00"
64,hirara,-53.1626,-70.9078,9.16,43,75,8.75,CL,"Dec 05, 2022, Mon, 17:00"
65,saint-philippe,2.9205,172.9189,27.28,80,98,6.88,KI,"Dec 05, 2022, Mon, 17:00"
66,avarua,-31.965,141.4511,18.36,39,70,4.73,AU,"Dec 05, 2022, Mon, 17:00"
67,carnarvon,59.7035,30.7861,-6.06,93,100,3.38,RU,"Dec 05, 2022, Mon, 17:00"
68,punta arenas,16.3406,-13.9481,28.08,29,36,2.84,SN,"Dec 05, 2022, Mon, 17:00"
69,el wasta,71.2906,-156.7886,-1.99,64,0,13.38,US,"Dec 05, 2022, Mon, 17:00"
70,butaritari,-13.9974,-171.4289,27.34,76,55,3.5,WS,"Dec 05, 2022, Mon, 17:00"
71,broken hill,-21.1926,-175.1773,28.16,83,75,5.14,TO,"Dec 05, 2022, Mon, 17:00"
72,nikolskoye,57.0503,-135.3351,3.99,75,100,2.57,US,"Dec 05, 2022, Mon, 17:00"
73,bababe,27.971,-114.0364,19.78,69,8,8.3,MX,"Dec 05, 2022, Mon, 17:00"
74,barrow,-11.0422,37.3351,22.24,59,44,2.68,TZ,"Dec 05, 2022, Mon, 17:00"
75,samusu,-28.7708,32.0578,20.81,79,100,6.87,ZA,"Dec 05, 2022, Mon, 17:00"
76,vaini,-22.9663,-42.0244,23.59,86,100,9.63,BR,"Dec 05, 2022, Mon, 17:00"
77,sitka,-30.1657,-50.2183,22.13,90,96,3.97,BR,"Dec 05, 2022, Mon, 17:00"
78,guerrero negro,-33.6445,115.3489,13.88,71,0,5.12,AU,"Dec 05, 2022, Mon, 17:00"
79,tunduru,69.2197,-51.0986,5.16,56,100,2.06,GL,"Dec 05, 2022, Mon, 17:00"
80,richards bay,21.7252,96.6036,17.27,87,2,1.8,MM,"Dec 05, 2022, Mon, 17:00"
81,arraial do cabo,32.6811,-17.1041,19.18,77,100,0.67,PT,"Dec 05, 2022, Mon, 17:00"
82,cidreira,71.9819,102.4715,-32.76,100,14,2.12,RU,"Dec 05, 2022, Mon, 17:00"
83,busselton,62.5838,6.1242,5.97,75,75,6.17,NO,"Dec 05, 2022, Mon, 17:00"
84,ilulissat,17.544,44.2247,14.59,36,0,1.13,SA,"Dec 05, 2022, Mon, 17:00"
85,kyaukse,22.8314,69.3508,21.68,33,0,5.43,IN,"Dec 05, 2022, Mon, 17:00"
86,ponta do sol,40.2917,97.0449,-9.37,87,100,0.99,CN,"Dec 05, 2022, Mon, 17:00"
87,khatanga,35.753,140.8201,5.68,86,100,11.41,JP,"Dec 05, 2022, Mon, 17:00"
88,roald,70.6194,147.9024,-37.88,99,39,3.22,RU,"Dec 05, 2022, Mon, 17:00"
89,najran,19.3481,83.7833,16.16,73,58,1.53,IN,"Dec 05, 2022, Mon, 17:00"
90,mandvi,49.783,-74.8573,-7.14,90,96,2.04,CA,"Dec 05, 2022, Mon, 17:00"
91,yumen,47.6577,-52.727,4.23,96,100,0.0,CA,"Dec 05, 2022, Mon, 17:00"
92,hasaki,45.908,13.5165,11.04,97,75,0.51,IT,"Dec 05, 2022, Mon, 17:00"
93,chokurdakh,-0.9248,100.3633,24.48,89,100,1.73,ID,"Dec 05, 2022, Mon, 17:00"
94,gudari,-42.7802,147.0615,13.42,59,92,1.34,AU,"Dec 05, 2022, Mon, 17:00"
95,torbay,-15.9277,-5.7161,20.33,83,58,8.01,SH,"Dec 05, 2022, Mon, 17:00"
96,fare,77.4686,-69.2223,0.73,86,100,7.39,GL,"Dec 05, 2022, Mon, 17:00"
97,padang,42.0355,11.8679,15.16,96,16,5.56,IT,"Dec 05, 2022, Mon, 17:00"
98,new norfolk,33.7241,135.993,6.6,85,42,3.08,JP,"Dec 05, 2022, Mon, 17:00"
99,belushya guba,11.0396,20.2826,24.54,23,49,3.2,TD,"Dec 05, 2022, Mon, 17:00"
100,jamestown,69.7522,61.6623,-13.51,83,81,8.68,RU,"Dec 05, 2022, Mon, 17:00"
101,qaanaaq,-17.1295,143.9242,26.85,48,3,1.18,AU,"Dec 05, 2022, Mon, 17:00"
102,santa marinella,56.6443,-2.8882,2.88,86,85,2.53,GB,"Dec 05, 2022, Mon, 17:00"
103,shingu,-0.8614,134.0767,26.61,79,100,2.56,ID,"Dec 05, 2022, Mon, 17:00"
104,am timan,18.5602,-74.2581,24.54,70,5,4.44,HT,"Dec 05, 2022, Mon, 17:00"
105,amderma,70.4851,-21.9642,-8.76,43,64,0.82,GL,"Dec 05, 2022, Mon, 17:00"
106,mareeba,-8.9266,125.4092,15.66,70,86,0.68,TL,"Dec 05, 2022, Mon, 17:00"
107,taolanaro,32.2994,-9.2395,17.97,82,29,7.34,MA,"Dec 05, 2022, Mon, 17:00"
108,forfar,-15.1951,12.1458,21.2,79,30,2.09,AO,"Dec 05, 2022, Mon, 17:00"
109,manokwari,24.7964,85.008,11.65,51,0,2.35,IN,"Dec 05, 2022, Mon, 17:00"
110,moron,48.4246,18.6414,5.81,92,100,2.86,SK,"Dec 05, 2022, Mon, 17:00"
111,illoqqortoormiut,58.3898,13.8444,-1.36,93,81,1.34,SE,"Dec 05, 2022, Mon, 17:00"
112,airai,-16.4824,-151.7338,25.85,77,76,7.99,PF,"Dec 05, 2022, Mon, 17:00"
113,asfi,65.5336,72.5114,-15.32,96,61,4.04,RU,"Dec 05, 2022, Mon, 17:00"
114,namibe,-10.4569,161.9202,28.39,76,100,2.22,SB,"Dec 05, 2022, Mon, 17:00"
115,gaya,16.5605,43.89,12.77,38,0,1.95,YE,"Dec 05, 2022, Mon, 17:00"
116,nova bana,-6.9882,106.5504,25.4,86,100,1.29,ID,"Dec 05, 2022, Mon, 17:00"
117,skovde,-33.6938,-53.4561,21.01,79,0,3.73,BR,"Dec 05, 2022, Mon, 17:00"
118,faanui,78.0654,14.2172,-14.22,84,90,8.98,SJ,"Dec 05, 2022, Mon, 17:00"
119,nadym,-12.1215,-77.0259,19.54,73,40,5.14,PE,"Dec 05, 2022, Mon, 17:00"
120,kirakira,27.8734,-0.2875,20.12,21,0,5.14,DZ,"Dec 05, 2022, Mon, 17:00"
121,umm lajj,-20.3472,57.7647,24.31,88,75,4.63,MU,"Dec 05, 2022, Mon, 17:00"
122,palabuhanratu,20.202,1.0125,25.47,15,87,4.46,ML,"Dec 05, 2022, Mon, 17:00"
123,chuy,-0.7149,8.7797,26.99,94,40,3.6,GA,"Dec 05, 2022, Mon, 17:00"
124,barentsburg,-37.61,-73.6559,17.19,72,1,2.37,CL,"Dec 05, 2022, Mon, 17:00"
125,miraflores,53.4066,22.7984,-1.85,93,100,4.47,PL,"Dec 05, 2022, Mon, 17:00"
126,adrar,50.2296,17.2046,3.71,93,100,0.77,CZ,"Dec 05, 2022, Mon, 17:00"
127,bambous virieux,-19.0534,-169.9192,28.28,78,75,4.63,NU,"Dec 05, 2022, Mon, 17:00"
128,tessalit,2.6193,44.8936,24.98,82,15,3.31,SO,"Dec 05, 2022, Mon, 17:00"
129,port-gentil,-43.2991,-65.1057,31.16,15,0,10.8,AR,"Dec 05, 2022, Mon, 17:00"
130,lebu,66.148,-65.7173,-4.86,86,100,5.14,CA,"Dec 05, 2022, Mon, 17:00"
131,monki,62.1575,117.6463,-19.16,98,100,2.3,RU,"Dec 05, 2022, Mon, 17:00"
132,jesenik,51.5082,-2.3937,6.39,91,100,1.79,GB,"Dec 05, 2022, Mon, 17:00"
133,alofi,39.5593,-2.7038,9.19,89,100,7.25,ES,"Dec 05, 2022, Mon, 17:00"
134,wanlaweyn,11.2997,-15.8335,27.14,69,76,3.16,GW,"Dec 05, 2022, Mon, 17:00"
135,rawson,-34.012,24.7433,13.88,90,2,3.51,ZA,"Dec 05, 2022, Mon, 17:00"
136,pangnirtung,36.1866,50.0641,1.23,100,100,0.0,IR,"Dec 05, 2022, Mon, 17:00"
137,suntar,34.8992,132.08,7.76,63,75,5.93,JP,"Dec 05, 2022, Mon, 17:00"
138,codrington,66.0433,-17.341,-0.33,80,95,4.89,IS,"Dec 05, 2022, Mon, 17:00"
139,vila do maio,48.2972,4.0746,1.99,93,100,1.54,FR,"Dec 05, 2022, Mon, 17:00"
140,belmonte,64.7317,177.5061,-4.07,92,100,34.0,RU,"Dec 05, 2022, Mon, 17:00"
141,bubaque,-6.6387,-51.9788,22.37,96,79,0.62,BR,"Dec 05, 2022, Mon, 17:00"
142,kruisfontein,-38.5545,-58.7393,32.99,27,6,4.95,AR,"Dec 05, 2022, Mon, 17:00"
143,alvand,-46.2817,169.8464,9.21,87,100,2.71,NZ,"Dec 05, 2022, Mon, 17:00"
144,cherskiy,39.3691,17.1329,14.21,76,94,2.25,IT,"Dec 05, 2022, Mon, 17:00"
145,hamada,69.494,88.3908,-4.12,96,100,5.85,RU,"Dec 05, 2022, Mon, 17:00"
146,husavik,63.7496,-68.5192,-17.14,96,100,1.02,CA,"Dec 05, 2022, Mon, 17:00"
147,troyes,65.2824,-126.8327,-28.98,76,75,4.63,CA,"Dec 05, 2022, Mon, 17:00"
148,anadyr,40.6781,8.6173,6.25,66,100,2.1,IT,"Dec 05, 2022, Mon, 17:00"
149,sao felix do xingu,-11.7626,130.6321,26.57,74,100,0.98,AU,"Dec 05, 2022, Mon, 17:00"
150,necochea,-41.8682,-73.8287,13.86,97,95,5.54,CL,"Dec 05, 2022, Mon, 17:00"
151,kaitangata,55.2834,-114.769,-19.01,65,75,6.17,CA,"Dec 05, 2022, Mon, 17:00"
152,ciro marina,57.5053,-1.7813,5.39,74,76,8.8,GB,"Dec 05, 2022, Mon, 17:00"
153,talnakh,-20.2095,57.7706,24.14,80,64,6.82,MU,"Dec 05, 2022, Mon, 17:00"
154,iqaluit,45.5202,-122.6742,8.45,76,20,1.54,US,"Dec 05, 2022, Mon, 17:00"
155,norman wells,56.9076,118.2673,-19.57,75,100,2.51,RU,"Dec 05, 2022, Mon, 17:00"
156,muros,-25.2986,152.8535,23.13,75,0,3.96,AU,"Dec 05, 2022, Mon, 17:00"
157,nguiu,50.675,113.5893,-10.94,66,100,10.69,RU,"Dec 05, 2022, Mon, 17:00"
158,ancud,60.3963,-1.3537,5.84,67,100,9.59,GB,"Dec 05, 2022, Mon, 17:00"
159,slave lake,4.1482,96.1339,23.05,93,100,1.52,ID,"Dec 05, 2022, Mon, 17:00"
160,peterhead,65.9623,78.3719,-11.83,94,36,5.3,RU,"Dec 05, 2022, Mon, 17:00"
161,quatre cocos,71.965,114.0939,-24.97,89,100,8.98,RU,"Dec 05, 2022, Mon, 17:00"
162,portland,35.0111,132.2213,8.1,59,85,5.64,JP,"Dec 05, 2022, Mon, 17:00"
163,chara,-3.7923,102.2624,23.34,91,100,1.18,ID,"Dec 05, 2022, Mon, 17:00"
164,hervey bay,-29.9532,-71.338,17.93,72,20,4.63,CL,"Dec 05, 2022, Mon, 17:00"
165,duldurga,37.5516,59.3273,-1.22,56,5,2.16,TM,"Dec 05, 2022, Mon, 17:00"
166,brae,64.5011,-165.4064,-0.96,86,75,8.23,US,"Dec 05, 2022, Mon, 17:00"
167,meulaboh,-2.5735,150.7952,27.66,77,95,2.29,PG,"Dec 05, 2022, Mon, 17:00"
168,urengoy,43.9052,81.2748,-7.22,95,100,1.13,CN,"Dec 05, 2022, Mon, 17:00"
169,saskylakh,22.4023,-99.6028,23.34,42,2,0.86,MX,"Dec 05, 2022, Mon, 17:00"
170,gotsu,33.2706,35.2002,17.27,67,0,1.02,LB,"Dec 05, 2022, Mon, 17:00"
171,bengkulu,66.7656,123.3741,-28.87,98,100,1.46,RU,"Dec 05, 2022, Mon, 17:00"
172,coquimbo,12.1806,125.5074,26.48,77,100,3.97,PH,"Dec 05, 2022, Mon, 17:00"
173,artyk,63.8257,20.2631,-2.79,93,0,3.09,SE,"Dec 05, 2022, Mon, 17:00"
174,nome,47.1748,125.8813,-19.37,91,12,4.44,CN,"Dec 05, 2022, Mon, 17:00"
175,kavieng,-1.8243,-44.873,25.15,83,36,2.34,BR,"Dec 05, 2022, Mon, 17:00"
176,yining,-23.698,133.8808,30.76,13,2,3.6,AU,"Dec 05, 2022, Mon, 17:00"
177,ciudad del maiz,62.0983,126.6998,-25.18,96,100,2.53,RU,"Dec 05, 2022, Mon, 17:00"
178,sur,35.3737,-83.226,8.86,95,100,0.0,US,"Dec 05, 2022, Mon, 17:00"
179,zhigansk,38.035,14.0245,15.48,63,86,3.13,IT,"Dec 05, 2022, Mon, 17:00"
180,san policarpo,43.4411,41.7437,-2.39,92,75,2.71,RU,"Dec 05, 2022, Mon, 17:00"
181,umea,17.6688,80.894,18.18,83,97,0.23,IN,"Dec 05, 2022, Mon, 17:00"
182,mingshui,-11.0967,-77.6129,20.67,77,10,3.98,PE,"Dec 05, 2022, Mon, 17:00"
183,cururupu,48.4283,-123.365,5.42,77,100,4.02,CA,"Dec 05, 2022, Mon, 17:00"
184,alice springs,12.2188,125.4822,26.23,78,100,3.71,PH,"Dec 05, 2022, Mon, 17:00"
185,berdigestyakh,-17.382,49.41,23.72,83,60,0.81,MG,"Dec 05, 2022, Mon, 17:00"
186,sylva,21.581,39.1654,25.95,73,0,1.54,SA,"Dec 05, 2022, Mon, 17:00"
187,cefalu,43.8602,20.1365,0.35,92,62,1.05,RS,"Dec 05, 2022, Mon, 17:00"
188,teberda,64.4237,-173.2274,-0.56,80,100,14.0,RU,"Dec 05, 2022, Mon, 17:00"
189,bhadrachalam,-2.033,147.2789,26.69,81,100,1.96,PG,"Dec 05, 2022, Mon, 17:00"
190,hualmay,11.691,9.3391,20.63,19,9,3.6,NG,"Dec 05, 2022, Mon, 17:00"
191,victoria,-2.9494,25.9184,19.77,99,100,0.92,CD,"Dec 05, 2022, Mon, 17:00"
192,alugan,9.7423,-63.1889,24.28,84,81,2.49,VE,"Dec 05, 2022, Mon, 17:00"
193,fenoarivo atsinanana,40.8089,-96.7078,3.69,60,0,8.23,US,"Dec 05, 2022, Mon, 17:00"
194,jiddah,51.5195,20.0338,3.52,10,100,2.35,PL,"Dec 05, 2022, Mon, 17:00"
195,lucani,60.7922,-161.7558,1.19,75,20,7.2,US,"Dec 05, 2022, Mon, 17:00"
196,provideniya,41.3625,-92.051,8.07,61,100,2.76,US,"Dec 05, 2022, Mon, 17:00"
197,lorengau,35.6876,-105.9385,12.2,46,20,7.2,US,"Dec 05, 2022, Mon, 17:00"
198,dutse,-32.9978,17.9456,15.15,78,76,6.35,ZA,"Dec 05, 2022, Mon, 17:00"
199,kindu,51.6211,-3.8116,7.3,85,100,6.43,GB,"Dec 05, 2022, Mon, 17:00"
200,maturin,-14.2413,129.5209,29.49,71,79,3.07,AU,"Dec 05, 2022, Mon, 17:00"
201,lincoln,55.1497,124.7376,-29.72,99,65,1.38,RU,"Dec 05, 2022, Mon, 17:00"
202,tomaszow mazowiecki,50.0432,132.1675,-20.88,98,100,0.94,RU,"Dec 05, 2022, Mon, 17:00"
203,bethel,14.6934,-17.4479,25.07,73,0,2.06,SN,"Dec 05, 2022, Mon, 17:00"
204,harper,7.5273,-12.502,26.1,83,76,1.01,SL,"Dec 05, 2022, Mon, 17:00"
205,santa fe,29.0331,21.5482,17.65,36,2,3.8,LY,"Dec 05, 2022, Mon, 17:00"
206,saldanha,-13.3447,-176.2136,27.89,69,93,3.31,WF,"Dec 05, 2022, Mon, 17:00"
207,baglan,46.064,30.4503,4.26,76,100,6.64,UA,"Dec 05, 2022, Mon, 17:00"
208,port keats,43.7704,124.7657,-11.22,52,0,5.44,CN,"Dec 05, 2022, Mon, 17:00"
209,tynda,1.5574,110.344,25.03,94,40,1.03,MY,"Dec 05, 2022, Mon, 17:00"
210,tyrma,-2.5389,112.9494,23.02,98,100,0.17,ID,"Dec 05, 2022, Mon, 17:00"
211,dakar,41.1415,-73.3579,7.32,61,0,2.57,US,"Dec 05, 2022, Mon, 17:00"
212,bonthe,27.9695,-97.7732,28.4,57,70,5.48,US,"Dec 05, 2022, Mon, 17:00"
213,jalu,51.1601,94.4652,-27.29,92,94,0.62,RU,"Dec 05, 2022, Mon, 17:00"
214,halalo,60.9127,-46.0453,6.14,71,76,4.84,GL,"Dec 05, 2022, Mon, 17:00"
215,zatoka,49.2216,143.1016,-13.16,78,5,3.27,RU,"Dec 05, 2022, Mon, 17:00"
216,gongzhuling,63.427,-20.2693,4.28,69,47,2.03,IS,"Dec 05, 2022, Mon, 17:00"
217,kuching,72.7847,-56.147,-3.04,82,29,4.72,GL,"Dec 05, 2022, Mon, 17:00"
218,sampit,45.7823,8.6903,4.56,95,0,2.57,IT,"Dec 05, 2022, Mon, 17:00"
219,westport,60.7328,77.6008,-13.71,96,98,3.42,RU,"Dec 05, 2022, Mon, 17:00"
220,san patricio,9.2481,29.8004,25.27,34,3,2.37,SS,"Dec 05, 2022, Mon, 17:00"
221,bay-khaak,42.0258,35.1481,11.14,80,98,2.56,TR,"Dec 05, 2022, Mon, 17:00"
222,narsaq,9.407,45.0636,18.93,51,8,2.01,SO,"Dec 05, 2022, Mon, 17:00"
223,poronaysk,39.6008,-110.8063,5.57,56,75,2.06,US,"Dec 05, 2022, Mon, 17:00"
224,vestmannaeyjar,61.275,108.0097,-10.72,90,100,6.46,RU,"Dec 05, 2022, Mon, 17:00"
225,upernavik,62.4541,-114.3774,-31.55,68,20,4.63,CA,"Dec 05, 2022, Mon, 17:00"
226,ternate,6.7947,81.5083,22.37,93,100,1.02,LK,"Dec 05, 2022, Mon, 17:00"
227,strezhevoy,34.1642,77.5848,-8.71,50,49,0.61,IN,"Dec 05, 2022, Mon, 17:00"
228,bentiu,32.3087,-90.1983,22.01,85,100,4.12,US,"Dec 05, 2022, Mon, 17:00"
229,sinop,48.6542,-53.1103,2.34,93,100,6.29,CA,"Dec 05, 2022, Mon, 17:00"
230,odweyne,78.2232,15.6464,-13.85,66,75,10.29,SJ,"Dec 05, 2022, Mon, 17:00"
231,price,14.8953,-24.4969,22.57,68,32,3.02,CV,"Dec 05, 2022, Mon, 17:00"
232,yerbogachen,-37.9977,-57.5483,29.32,78,0,8.49,AR,"Dec 05, 2022, Mon, 17:00"
233,yellowknife,-30.3296,149.7814,25.25,50,2,0.89,AU,"Dec 05, 2022, Mon, 17:00"
234,wattegama,54.8408,61.127,-23.96,100,94,0.77,RU,"Dec 05, 2022, Mon, 17:00"
235,leh,16.0593,-61.7637,24.76,74,97,4.41,GP,"Dec 05, 2022, Mon, 17:00"
236,jackson,-20.729,139.4932,29.92,37,0,4.63,AU,"Dec 05, 2022, Mon, 17:00"
237,bonavista,43.1118,-3.907,11.87,90,100,2.77,ES,"Dec 05, 2022, Mon, 17:00"
238,longyearbyen,-35.3622,150.4752,17.67,68,41,4.37,AU,"Dec 05, 2022, Mon, 17:00"
239,sao filipe,-27.1823,151.2634,27.77,37,0,1.79,AU,"Dec 05, 2022, Mon, 17:00"
240,mar del plata,20.8894,-156.4727,27.99,68,20,7.2,US,"Dec 05, 2022, Mon, 17:00"
241,narrabri,55.7433,-97.8635,-28.9,69,20,3.09,CA,"Dec 05, 2022, Mon, 17:00"
242,deputatskiy,0.1237,117.4717,25.17,87,100,0.35,ID,"Dec 05, 2022, Mon, 17:00"
243,vieux-habitants,42.0597,-93.8802,3.51,65,75,7.2,US,"Dec 05, 2022, Mon, 17:00"
244,mount isa,-15.6282,-63.0841,26.63,67,100,2.76,BO,"Dec 05, 2022, Mon, 17:00"
245,luena,17.0175,54.1011,23.04,56,0,3.09,OM,"Dec 05, 2022, Mon, 17:00"
246,ulladulla,51.8439,41.4704,-8.67,54,7,1.71,RU,"Dec 05, 2022, Mon, 17:00"
247,dalby,13.581,-2.4177,27.55,22,93,3.55,BF,"Dec 05, 2022, Mon, 17:00"
248,kahului,-41.4341,147.1373,14.45,59,75,9.77,AU,"Dec 05, 2022, Mon, 17:00"
249,thompson,-38.7177,-62.2655,34.27,24,20,7.72,AR,"Dec 05, 2022, Mon, 17:00"
250,bontang,35.1522,140.3207,6.82,94,100,9.02,JP,"Dec 05, 2022, Mon, 17:00"
251,dicabisagan,56.8889,21.1825,-3.04,88,100,3.69,LV,"Dec 05, 2022, Mon, 17:00"
252,boone,-2.1044,-56.4877,26.67,73,57,0.89,BR,"Dec 05, 2022, Mon, 17:00"
253,urubicha,-3.3082,129.0011,23.95,84,83,1.3,ID,"Dec 05, 2022, Mon, 17:00"
254,salalah,-8.4903,140.3956,25.75,81,97,3.23,ID,"Dec 05, 2022, Mon, 17:00"
255,zherdevka,44.0097,87.3061,-10.62,79,0,2.0,CN,"Dec 05, 2022, Mon, 17:00"
256,ouahigouya,-42.1159,171.8635,18.43,49,70,1.52,NZ,"Dec 05, 2022, Mon, 17:00"
257,launceston,-10.1632,123.6018,24.23,94,20,1.03,ID,"Dec 05, 2022, Mon, 17:00"
258,bahia blanca,-6.9732,-34.8352,26.38,76,14,5.33,BR,"Dec 05, 2022, Mon, 17:00"
259,katsuura,65.844,44.2441,-9.57,93,99,4.68,RU,"Dec 05, 2022, Mon, 17:00"
260,pavilosta,65.6153,-37.6378,-3.72,62,27,2.81,GL,"Dec 05, 2022, Mon, 17:00"
261,terra santa,59.0912,56.0847,-15.14,98,85,1.31,RU,"Dec 05, 2022, Mon, 17:00"
262,amahai,62.7145,56.1854,-17.99,99,98,2.08,RU,"Dec 05, 2022, Mon, 17:00"
263,merauke,-45.4145,167.7175,8.59,97,100,1.66,NZ,"Dec 05, 2022, Mon, 17:00"
264,changji,50.0187,-66.8757,0.29,76,100,6.7,CA,"Dec 05, 2022, Mon, 17:00"
265,reefton,68.537,146.1873,-39.23,96,85,1.39,RU,"Dec 05, 2022, Mon, 17:00"
266,kupang,65.7336,150.8933,-45.56,98,37,1.99,RU,"Dec 05, 2022, Mon, 17:00"
267,cabedelo,36.2957,-76.2248,11.12,83,0,2.57,US,"Dec 05, 2022, Mon, 17:00"
268,mezen,20.225,-97.5931,26.18,78,69,1.85,MX,"Dec 05, 2022, Mon, 17:00"
269,tazovskiy,58.1541,41.609,-10.28,86,100,2.92,RU,"Dec 05, 2022, Mon, 17:00"
270,tasiilaq,22.9324,57.5311,18.51,66,0,0.52,OM,"Dec 05, 2022, Mon, 17:00"
271,pozhva,-8.2383,-35.4617,21.3,92,52,2.94,BR,"Dec 05, 2022, Mon, 17:00"
272,troitsko-pechorsk,36.9561,36.1992,13.46,62,21,1.56,TR,"Dec 05, 2022, Mon, 17:00"
273,te anau,39.6134,2.8804,11.64,93,20,2.57,ES,"Dec 05, 2022, Mon, 17:00"
274,port-cartier,24.4054,76.6763,15.81,47,0,2.03,IN,"Dec 05, 2022, Mon, 17:00"
275,belaya gora,24.2275,73.3532,14.92,53,0,2.56,IN,"Dec 05, 2022, Mon, 17:00"
276,zyryanka,6.7269,-3.4968,23.59,84,72,1.33,CI,"Dec 05, 2022, Mon, 17:00"
277,elizabeth city,-8.7676,160.7034,28.45,70,99,1.22,SB,"Dec 05, 2022, Mon, 17:00"
278,lazaro cardenas,6.1978,102.171,24.67,91,100,2.56,MY,"Dec 05, 2022, Mon, 17:00"
279,susanino,38.0968,-3.7766,15.08,85,100,0.65,ES,"Dec 05, 2022, Mon, 17:00"
280,nizwa,-14.2502,31.3298,21.3,63,85,1.94,ZM,"Dec 05, 2022, Mon, 17:00"
281,cha grande,50.6683,156.1154,-4.83,76,98,9.34,RU,"Dec 05, 2022, Mon, 17:00"
282,erzin,-33.9617,25.6208,16.06,88,0,6.69,ZA,"Dec 05, 2022, Mon, 17:00"
283,vila,11.6645,92.739,26.83,83,99,9.37,IN,"Dec 05, 2022, Mon, 17:00"
284,barbar,47.4001,24.7435,2.22,99,100,0.48,RO,"Dec 05, 2022, Mon, 17:00"
285,malwan,37.8225,-25.5195,17.29,100,75,7.2,PT,"Dec 05, 2022, Mon, 17:00"
286,mahadday weyne,14.3158,2.0848,28.26,18,93,4.28,NE,"Dec 05, 2022, Mon, 17:00"
287,abengourou,18.2949,83.8939,19.4,85,40,2.34,IN,"Dec 05, 2022, Mon, 17:00"
288,auki,69.3497,87.7602,-4.15,100,100,7.16,RU,"Dec 05, 2022, Mon, 17:00"
289,tumpat,-20.3297,-40.292,23.97,87,0,5.14,BR,"Dec 05, 2022, Mon, 17:00"
290,bailen,-28.7732,114.6096,20.19,88,75,5.14,AU,"Dec 05, 2022, Mon, 17:00"
291,petauke,69.7028,170.2747,-29.15,83,20,1.69,RU,"Dec 05, 2022, Mon, 17:00"
292,severo-kurilsk,-35.3318,-72.4119,17.7,64,5,7.42,CL,"Dec 05, 2022, Mon, 17:00"
293,port elizabeth,7.778,100.3207,26.72,84,100,5.78,TH,"Dec 05, 2022, Mon, 17:00"
294,port blair,61.8131,51.5745,-18.01,90,73,2.58,RU,"Dec 05, 2022, Mon, 17:00"
295,maieru,47.39,0.6889,5.32,90,100,2.57,FR,"Dec 05, 2022, Mon, 17:00"
296,ribeira grande,47.6125,-57.6095,0.59,68,17,3.05,CA,"Dec 05, 2022, Mon, 17:00"
297,ouallam,-2.3896,28.7568,11.69,95,85,0.03,CD,"Dec 05, 2022, Mon, 17:00"
298,kayerkan,33.596,56.9247,6.12,49,37,0.0,IR,"Dec 05, 2022, Mon, 17:00"
299,vila velha,-28.2418,-48.6643,25.53,96,84,4.02,BR,"Dec 05, 2022, Mon, 17:00"
300,geraldton,62.2266,-6.5853,3.58,65,80,11.74,FO,"Dec 05, 2022, Mon, 17:00"
301,pevek,50.7606,13.8682,2.17,98,100,1.19,DE,"Dec 05, 2022, Mon, 17:00"
302,constitucion,32.449,-81.7833,16.74,94,100,1.54,US,"Dec 05, 2022, Mon, 17:00"
303,ranot,37.6138,-122.4869,16.01,73,75,5.14,US,"Dec 05, 2022, Mon, 17:00"
304,kortkeros,61.9946,-49.6659,3.05,77,100,15.53,GL,"Dec 05, 2022, Mon, 17:00"
305,tura,71.4404,136.1306,-24.38,97,100,4.24,RU,"Dec 05, 2022, Mon, 17:00"
306,burgeo,6.1239,81.1206,24.71,84,100,2.25,LK,"Dec 05, 2022, Mon, 17:00"
307,kabare,68.0544,39.5129,-6.03,87,34,10.29,RU,"Dec 05, 2022, Mon, 17:00"
308,pankovka,-20.8629,144.2526,30.24,26,0,4.06,AU,"Dec 05, 2022, Mon, 17:00"
309,tabas,12.0535,-61.7518,25.49,78,20,2.57,GD,"Dec 05, 2022, Mon, 17:00"
310,imbituba,-24.3998,150.5142,25.38,56,0,2.62,AU,"Dec 05, 2022, Mon, 17:00"
311,agirish,63.7948,74.4969,-15.71,97,100,5.05,RU,"Dec 05, 2022, Mon, 17:00"
312,klaksvik,-21.6349,-41.0487,25.06,84,88,9.17,BR,"Dec 05, 2022, Mon, 17:00"
313,furstenwalde,32.3648,-117.0556,18.75,62,10,5.4,MX,"Dec 05, 2022, Mon, 17:00"
314,statesboro,5.8927,95.3226,26.55,78,87,2.8,ID,"Dec 05, 2022, Mon, 17:00"
315,pacifica,65.7042,82.4589,-5.69,93,100,7.32,RU,"Dec 05, 2022, Mon, 17:00"
316,paamiut,66.4045,14.5278,1.87,93,75,5.66,NO,"Dec 05, 2022, Mon, 17:00"
317,nizhneyansk,37.3906,136.8994,7.83,88,100,8.02,JP,"Dec 05, 2022, Mon, 17:00"
318,hambantota,68.8929,-179.4131,-22.66,95,16,1.86,RU,"Dec 05, 2022, Mon, 17:00"
319,ostrovnoy,45.2874,0.6385,4.59,85,25,2.3,FR,"Dec 05, 2022, Mon, 17:00"
320,flinders,4.9371,-52.3258,25.01,94,78,1.54,GF,"Dec 05, 2022, Mon, 17:00"
321,saint george,11.7771,-72.4469,26.91,72,94,4.51,CO,"Dec 05, 2022, Mon, 17:00"
322,biloela,36.8979,-104.4355,16.4,19,0,5.66,US,"Dec 05, 2022, Mon, 17:00"
323,muravlenko,58.1842,94.6943,-15.89,92,100,5.21,RU,"Dec 05, 2022, Mon, 17:00"
324,sao joao da barra,18.0792,-15.978,21.96,63,32,3.35,MR,"Dec 05, 2022, Mon, 17:00"
325,rosarito,-20.2907,57.7852,24.28,88,75,4.63,MU,"Dec 05, 2022, Mon, 17:00"
326,sabang,48.0613,33.281,-4.55,56,92,4.48,UA,"Dec 05, 2022, Mon, 17:00"
327,krasnoselkup,47.7964,67.7062,-16.84,94,99,2.19,KZ,"Dec 05, 2022, Mon, 17:00"
328,storforshei,58.2762,48.3068,-17.02,92,57,2.27,RU,"Dec 05, 2022, Mon, 17:00"
329,wajima,47.3256,110.6649,-19.86,82,1,3.98,MN,"Dec 05, 2022, Mon, 17:00"
330,mys shmidta,25.914,-97.4891,27.27,75,75,7.72,US,"Dec 05, 2022, Mon, 17:00"
331,bira,-23.667,-46.4617,21.31,97,100,3.12,BR,"Dec 05, 2022, Mon, 17:00"
332,cayenne,-20.0714,146.271,26.39,49,0,3.9,AU,"Dec 05, 2022, Mon, 17:00"
333,manaure,39.7674,-89.6776,7.03,79,100,3.6,US,"Dec 05, 2022, Mon, 17:00"
334,raton,48.9532,-57.9474,-4.99,93,15,0.61,CA,"Dec 05, 2022, Mon, 17:00"
335,motygino,51.81,68.3585,-24.94,96,92,1.9,KZ,"Dec 05, 2022, Mon, 17:00"
336,nouakchott,28.6592,-17.9152,18.86,83,100,3.58,ES,"Dec 05, 2022, Mon, 17:00"
337,grand river south east,60.14,-45.2429,0.82,77,96,6.4,GL,"Dec 05, 2022, Mon, 17:00"
338,lozuvatka,22.6762,-3.9805,26.99,16,15,1.7,ML,"Dec 05, 2022, Mon, 17:00"
339,zhezkazgan,65.6839,-18.1122,-4.34,86,0,1.54,IS,"Dec 05, 2022, Mon, 17:00"
340,karaul,42.9924,-77.8603,6.56,48,100,3.66,US,"Dec 05, 2022, Mon, 17:00"
341,ondorhaan,40.5324,48.9276,-3.11,90,96,0.64,AZ,"Dec 05, 2022, Mon, 17:00"
342,brownsville,-20.2951,44.2786,23.89,84,26,2.55,MG,"Dec 05, 2022, Mon, 17:00"
343,maua,-3.2166,40.1166,25.86,79,71,3.45,KE,"Dec 05, 2022, Mon, 17:00"
344,yar-sale,14.3925,46.4701,15.69,54,2,1.2,YE,"Dec 05, 2022, Mon, 17:00"
345,charters towers,64.175,-51.7355,7.4,45,75,13.89,GL,"Dec 05, 2022, Mon, 17:00"
346,jerome,-22.9543,14.5075,14.53,72,0,2.06,NA,"Dec 05, 2022, Mon, 17:00"
347,ningan,65.8233,-20.3006,0.58,81,38,2.88,IS,"Dec 05, 2022, Mon, 17:00"
348,corner brook,45.1203,141.1986,0.29,60,100,12.97,JP,"Dec 05, 2022, Mon, 17:00"
349,atbasar,34.8578,133.0167,4.46,89,31,0.66,JP,"Dec 05, 2022, Mon, 17:00"
350,los llanos de aridane,-17.7297,-39.266,22.47,86,100,2.53,BR,"Dec 05, 2022, Mon, 17:00"
351,nanortalik,45.0504,136.6137,-12.19,74,2,2.82,RU,"Dec 05, 2022, Mon, 17:00"
352,taoudenni,-23.11,-50.3675,22.19,92,84,0.19,BR,"Dec 05, 2022, Mon, 17:00"
353,akureyri,-24.7751,25.5922,18.12,16,77,2.73,BW,"Dec 05, 2022, Mon, 17:00"
354,mumford,45.8574,-73.2374,5.06,60,99,3.09,CA,"Dec 05, 2022, Mon, 17:00"
355,gorno-chuyskiy,43.4788,-0.3834,7.42,81,100,1.54,FR,"Dec 05, 2022, Mon, 17:00"
356,qobustan,13.9053,-89.4964,28.01,53,10,2.76,SV,"Dec 05, 2022, Mon, 17:00"
357,morondava,-11.9873,-73.1218,25.38,74,66,1.66,PE,"Dec 05, 2022, Mon, 17:00"
358,malindi,58.2889,43.8864,-11.0,89,100,2.67,RU,"Dec 05, 2022, Mon, 17:00"
359,marzuq,68.2183,-135.0136,-25.42,83,100,9.69,CA,"Dec 05, 2022, Mon, 17:00"
360,nuuk,41.7239,86.1735,-5.26,40,56,2.11,CN,"Dec 05, 2022, Mon, 17:00"
361,walvis bay,-2.9225,-39.9152,26.46,78,16,8.18,BR,"Dec 05, 2022, Mon, 17:00"
362,skagastrond,-20.2317,164.0299,26.23,85,100,6.05,NC,"Dec 05, 2022, Mon, 17:00"
363,kamiiso,55.8646,37.6045,-9.73,78,0,4.0,RU,"Dec 05, 2022, Mon, 17:00"
364,shobara,36.3826,111.6802,2.14,42,36,0.57,CN,"Dec 05, 2022, Mon, 17:00"
365,caravelas,23.6333,94.4167,17.65,94,1,0.58,MM,"Dec 05, 2022, Mon, 17:00"
366,terney,9.5003,123.4057,26.55,80,44,4.87,PH,"Dec 05, 2022, Mon, 17:00"
367,bandeirantes,8.1029,-63.547,28.56,56,100,2.15,VE,"Dec 05, 2022, Mon, 17:00"
368,manyana,5.7665,73.4112,25.79,82,100,2.98,MV,"Dec 05, 2022, Mon, 17:00"
369,contrecoeur,39.4855,9.0655,12.94,87,40,1.03,IT,"Dec 05, 2022, Mon, 17:00"
370,oga,54.309,25.3821,-6.01,94,100,5.33,LT,"Dec 05, 2022, Mon, 17:00"
371,el congo,47.5076,6.4808,2.57,95,23,0.58,FR,"Dec 05, 2022, Mon, 17:00"
372,camana,49.5696,24.9513,-1.16,93,100,5.99,UA,"Dec 05, 2022, Mon, 17:00"
373,neya,35.4624,134.172,7.73,53,75,5.14,JP,"Dec 05, 2022, Mon, 17:00"
374,aklavik,48.6941,45.1992,-8.22,56,6,3.52,RU,"Dec 05, 2022, Mon, 17:00"
375,korla,40.4662,-90.0918,7.2,72,97,0.45,US,"Dec 05, 2022, Mon, 17:00"
376,itarema,60.0603,69.9229,-22.01,100,100,1.21,RU,"Dec 05, 2022, Mon, 17:00"
377,poum,-34.6104,-58.3622,30.68,62,0,7.72,AR,"Dec 05, 2022, Mon, 17:00"
378,otradnoye,21.3469,-158.0858,27.18,62,20,4.63,US,"Dec 05, 2022, Mon, 17:00"
379,zhaocheng,31.4044,30.4164,18.61,69,99,5.39,EG,"Dec 05, 2022, Mon, 17:00"
380,mawlaik,56.3182,160.8422,-19.16,75,20,2.07,RU,"Dec 05, 2022, Mon, 17:00"
381,hagdan,40.3278,-91.2001,9.98,70,55,1.83,US,"Dec 05, 2022, Mon, 17:00"
382,bolivar,64.2533,-15.208,2.53,65,29,3.62,IS,"Dec 05, 2022, Mon, 17:00"
383,manadhoo,7.3732,12.6529,20.31,25,17,1.14,CM,"Dec 05, 2022, Mon, 17:00"
384,pimentel,-19.6772,-51.1908,26.23,64,77,0.81,BR,"Dec 05, 2022, Mon, 17:00"
385,salcininkai,32.6794,-16.8449,14.85,83,40,1.54,PT,"Dec 05, 2022, Mon, 17:00"
386,fallon,44.3783,-73.2276,6.38,45,75,5.14,US,"Dec 05, 2022, Mon, 17:00"
387,urman,30.5614,-115.9382,18.57,64,0,8.4,MX,"Dec 05, 2022, Mon, 17:00"
388,nakamura,8.6698,15.3801,24.82,22,56,2.06,TD,"Dec 05, 2022, Mon, 17:00"
389,leninsk,31.199,29.8944,19.04,65,100,5.58,EG,"Dec 05, 2022, Mon, 17:00"
390,bryant,-7.4769,178.6808,27.96,71,43,5.35,TV,"Dec 05, 2022, Mon, 17:00"
391,gornopravdinsk,-2.5295,-44.2964,29.06,74,20,5.14,BR,"Dec 05, 2022, Mon, 17:00"
392,puerto madero,43.3381,52.8556,-8.27,51,0,0.31,KZ,"Dec 05, 2022, Mon, 17:00"
393,makakilo city,9.2827,79.1527,27.13,73,100,6.87,IN,"Dec 05, 2022, Mon, 17:00"
394,rosetta,70.799,29.1505,-2.33,86,75,7.2,NO,"Dec 05, 2022, Mon, 17:00"
395,klyuchi,-31.2875,-51.0898,22.39,80,89,6.75,BR,"Dec 05, 2022, Mon, 17:00"
396,basco,-28.4825,-48.7808,22.42,95,92,4.58,BR,"Dec 05, 2022, Mon, 17:00"
397,hofn,61.5996,-149.1111,0.93,93,100,0.0,US,"Dec 05, 2022, Mon, 17:00"
398,tignere,71.039,27.8518,2.97,87,75,7.2,NO,"Dec 05, 2022, Mon, 17:00"
399,paranaiba,-14.6611,17.682,18.71,82,100,2.04,AO,"Dec 05, 2022, Mon, 17:00"
400,camacha,47.9929,-84.774,-2.0,86,100,3.6,CA,"Dec 05, 2022, Mon, 17:00"
401,mayachnyy,-7.1932,-48.2019,22.93,92,96,1.25,BR,"Dec 05, 2022, Mon, 17:00"
402,shelburne,-1.7656,-55.8661,26.37,78,84,0.87,BR,"Dec 05, 2022, Mon, 17:00"
403,san quintin,35.3669,132.7549,6.97,81,40,4.63,JP,"Dec 05, 2022, Mon, 17:00"
404,beinamar,47.4885,3.9071,3.44,93,100,1.13,FR,"Dec 05, 2022, Mon, 17:00"
405,alexandria,27.1506,57.0753,22.56,64,40,1.14,IR,"Dec 05, 2022, Mon, 17:00"
406,vaitupu,36.853,-75.9774,11.12,77,75,1.54,US,"Dec 05, 2022, Mon, 17:00"
407,sao luis,54.282,-0.4012,5.95,81,97,2.24,GB,"Dec 05, 2022, Mon, 17:00"
408,zhanaozen,-10.0687,-78.1522,20.92,77,15,3.42,PE,"Dec 05, 2022, Mon, 17:00"
409,berlevag,53.731,20.0419,0.36,93,100,2.63,PL,"Dec 05, 2022, Mon, 17:00"
410,tavares,43.9827,46.695,-1.17,72,34,4.89,RU,"Dec 05, 2022, Mon, 17:00"
411,laguna,65.5838,-171.0058,-1.15,87,100,11.71,RU,"Dec 05, 2022, Mon, 17:00"
412,palmer,-32.4909,137.764,20.99,35,100,2.1,AU,"Dec 05, 2022, Mon, 17:00"
413,mehamn,40.5982,-124.1573,13.29,80,100,0.89,US,"Dec 05, 2022, Mon, 17:00"
414,menongue,37.5667,126.9783,-0.31,59,75,2.06,KR,"Dec 05, 2022, Mon, 17:00"
415,wawa,-12.2841,43.7427,27.08,78,5,6.86,KM,"Dec 05, 2022, Mon, 17:00"
416,araguaina,-9.0699,143.21,27.15,76,99,4.48,PG,"Dec 05, 2022, Mon, 17:00"
417,oriximina,19.9103,109.6859,17.03,88,100,5.35,CN,"Dec 05, 2022, Mon, 17:00"
418,izumo,60.4291,166.0571,-13.23,85,92,4.47,RU,"Dec 05, 2022, Mon, 17:00"
419,avallon,43.3896,-0.1768,6.45,79,100,1.54,FR,"Dec 05, 2022, Mon, 17:00"
420,minab,-22.2745,166.4424,27.25,99,100,3.23,NC,"Dec 05, 2022, Mon, 17:00"
421,virginia beach,49.0385,2.0778,3.34,90,100,1.54,FR,"Dec 05, 2022, Mon, 17:00"
422,scarborough,29.9479,122.2798,10.81,62,34,6.11,CN,"Dec 05, 2022, Mon, 17:00"
423,huarmey,65.9646,29.1883,-1.96,86,100,7.2,FI,"Dec 05, 2022, Mon, 17:00"
424,vostok,21.4804,-105.0995,33.12,54,27,2.2,MX,"Dec 05, 2022, Mon, 17:00"
425,orlik,43.2561,-79.8729,5.9,54,75,3.09,CA,"Dec 05, 2022, Mon, 17:00"
426,komsomolskiy,46.5239,-84.3201,1.13,55,40,4.63,CA,"Dec 05, 2022, Mon, 17:00"
427,lavrentiya,-14.4646,132.2636,28.17,65,97,2.57,AU,"Dec 05, 2022, Mon, 17:00"
428,port augusta,4.3927,113.988,25.08,100,40,1.54,MY,"Dec 05, 2022, Mon, 17:00"
429,fortuna,-3.431,10.6544,25.36,90,100,2.1,GA,"Dec 05, 2022, Mon, 17:00"
430,sola,6.2827,-75.3318,17.66,88,40,1.03,CO,"Dec 05, 2022, Mon, 17:00"
431,fomboni,5.9478,80.5483,23.82,88,100,1.05,LK,"Dec 05, 2022, Mon, 17:00"
432,daru,54.8464,50.8055,-19.59,100,89,0.4,RU,"Dec 05, 2022, Mon, 17:00"
433,lingao,-6.9804,39.2978,23.75,90,100,2.32,TZ,"Dec 05, 2022, Mon, 17:00"
434,tilichiki,44.9497,-93.0931,-1.52,68,100,6.69,US,"Dec 05, 2022, Mon, 17:00"
435,avera,20.5182,-13.0544,24.51,18,11,2.42,MR,"Dec 05, 2022, Mon, 17:00"
436,noumea,11.0971,-2.1048,27.78,24,100,2.6,BF,"Dec 05, 2022, Mon, 17:00"
437,grand centre,44.2834,17.0827,7.14,93,49,2.53,BA,"Dec 05, 2022, Mon, 17:00"
438,shenjiamen,17.8589,-71.2917,26.99,74,32,3.01,DO,"Dec 05, 2022, Mon, 17:00"
439,kuusamo,56.6768,22.0156,-4.84,91,100,2.39,LV,"Dec 05, 2022, Mon, 17:00"
440,jalcocotan,58.2084,-6.3881,5.98,84,100,5.66,GB,"Dec 05, 2022, Mon, 17:00"
441,hamilton,45.9235,-59.9643,0.13,87,32,2.17,CA,"Dec 05, 2022, Mon, 17:00"
442,sault sainte marie,-5.1999,-35.4595,26.42,74,19,5.48,BR,"Dec 05, 2022, Mon, 17:00"
443,katherine,38.632,-90.2429,11.32,70,0,5.14,US,"Dec 05, 2022, Mon, 17:00"
444,miri,10.5672,72.6395,27.4,73,57,0.74,IN,"Dec 05, 2022, Mon, 17:00"
445,mayumba,29.6203,51.6521,15.44,65,83,0.87,IR,"Dec 05, 2022, Mon, 17:00"
446,san vicente,50.7244,-127.4976,1.99,93,75,1.54,CA,"Dec 05, 2022, Mon, 17:00"
447,matara,59.0598,80.8709,-18.14,96,100,3.26,RU,"Dec 05, 2022, Mon, 17:00"
448,aksu,-15.2155,-75.083,18.12,68,30,5.92,PE,"Dec 05, 2022, Mon, 17:00"
449,vikindu,-4.2581,-55.9934,23.71,96,100,0.78,BR,"Dec 05, 2022, Mon, 17:00"
450,saint-paul,-5.5226,142.0871,22.28,88,100,0.1,PG,"Dec 05, 2022, Mon, 17:00"
451,atar,64.8959,-23.7084,4.16,77,18,1.4,IS,"Dec 05, 2022, Mon, 17:00"
452,leo,20.3478,-74.4969,24.73,66,23,5.97,CU,"Dec 05, 2022, Mon, 17:00"
453,sipovo,18.838,36.8365,18.86,90,50,6.03,SD,"Dec 05, 2022, Mon, 17:00"
454,pedernales,7.7112,-80.4535,25.02,99,96,2.38,PA,"Dec 05, 2022, Mon, 17:00"
455,skrunda,18.4617,-69.3032,27.08,80,0,4.96,DO,"Dec 05, 2022, Mon, 17:00"
456,stornoway,41.8756,-87.6244,6.45,62,100,3.6,US,"Dec 05, 2022, Mon, 17:00"
457,louisbourg,41.3157,-70.009,7.82,77,0,3.58,US,"Dec 05, 2022, Mon, 17:00"
458,touros,10.1262,125.574,26.74,79,48,3.25,PH,"Dec 05, 2022, Mon, 17:00"
459,saint-louis,63.8442,-22.4317,0.18,100,10,1.54,IS,"Dec 05, 2022, Mon, 17:00"
460,kavaratti,32.7019,115.4757,2.32,84,3,2.04,CN,"Dec 05, 2022, Mon, 17:00"
461,kazerun,-16.7818,-151.4708,25.27,77,71,7.92,PF,"Dec 05, 2022, Mon, 17:00"
462,port hardy,56.914,119.9542,-19.64,91,100,3.04,RU,"Dec 05, 2022, Mon, 17:00"
463,kargasok,-45.1295,170.0998,13.34,74,94,3.47,NZ,"Dec 05, 2022, Mon, 17:00"
464,marcona,38.3545,38.6941,5.65,75,10,0.15,TR,"Dec 05, 2022, Mon, 17:00"
465,itaituba,-2.6848,141.3009,25.79,88,100,1.48,PG,"Dec 05, 2022, Mon, 17:00"
466,nueva guinea,28.4741,81.0811,12.53,71,0,1.83,NP,"Dec 05, 2022, Mon, 17:00"
467,bambanglipuro,27.9254,96.1647,15.75,37,0,1.99,IN,"Dec 05, 2022, Mon, 17:00"
468,olafsvik,20.9879,-98.6609,18.2,68,21,1.96,MX,"Dec 05, 2022, Mon, 17:00"
469,baracoa,5.5528,95.3193,25.31,80,98,2.74,ID,"Dec 05, 2022, Mon, 17:00"
470,sinkat,41.5057,-5.7448,6.96,97,100,2.14,ES,"Dec 05, 2022, Mon, 17:00"
471,bahia honda,11.0001,122.6718,22.86,93,35,3.39,PH,"Dec 05, 2022, Mon, 17:00"
472,masjed-e soleyman,3.2965,32.8818,20.59,63,86,0.97,UG,"Dec 05, 2022, Mon, 17:00"
473,san pedro de macoris,62.1446,65.4349,-16.87,98,82,2.41,RU,"Dec 05, 2022, Mon, 17:00"
474,chicago,53.0167,158.65,-13.94,77,9,5.08,RU,"Dec 05, 2022, Mon, 17:00"
475,nantucket,64.8378,-147.7167,-6.71,88,75,0.0,US,"Dec 05, 2022, Mon, 17:00"
476,rosita,53.2206,-114.9832,-13.31,82,100,6.38,CA,"Dec 05, 2022, Mon, 17:00"
477,grindavik,50.1135,-92.1962,-19.86,82,100,3.7,CA,"Dec 05, 2022, Mon, 17:00"
478,huilong,52.5459,62.4892,-23.09,97,37,2.32,KZ,"Dec 05, 2022, Mon, 17:00"
479,tevaitoa,32.8634,59.2177,1.2,55,0,0.0,IR,"Dec 05, 2022, Mon, 17:00"
480,khani,16.3527,95.2529,23.46,71,23,2.54,MM,"Dec 05, 2022, Mon, 17:00"
481,ranfurly,53.4107,109.0311,-8.63,80,100,6.43,RU,"Dec 05, 2022, Mon, 17:00"
482,erdemli,60.8004,21.4084,-0.08,75,96,5.6,FI,"Dec 05, 2022, Mon, 17:00"
483,vanimo,18.4151,84.0447,19.32,84,50,2.04,IN,"Dec 05, 2022, Mon, 17:00"
484,beringovskiy,-34.2871,146.0551,16.66,68,0,0.45,AU,"Dec 05, 2022, Mon, 17:00"
485,tikapur,-7.0295,112.7473,24.98,83,100,1.41,ID,"Dec 05, 2022, Mon, 17:00"
486,tezu,15.1144,104.3289,19.64,82,65,5.46,TH,"Dec 05, 2022, Mon, 17:00"
487,tlanchinol,-23.6464,-70.398,18.66,70,8,2.92,CL,"Dec 05, 2022, Mon, 17:00"
488,banda aceh,51.4718,21.4523,1.59,68,100,2.93,PL,"Dec 05, 2022, Mon, 17:00"
489,zamora,41.9235,-1.4207,6.56,71,100,1.93,ES,"Dec 05, 2022, Mon, 17:00"
490,dingle,-7.9411,-14.3631,22.29,86,82,8.84,SH,"Dec 05, 2022, Mon, 17:00"
491,kitgum,57.79,-152.4072,4.73,87,0,4.12,US,"Dec 05, 2022, Mon, 17:00"
492,nyagan,58.0415,63.6976,-20.31,100,65,1.64,RU,"Dec 05, 2022, Mon, 17:00"
493,petropavlovsk-kamchatskiy,45.0624,15.7128,3.94,89,57,1.92,BA,"Dec 05, 2022, Mon, 17:00"
494,fairbanks,42.0984,-76.0494,4.46,60,0,3.6,US,"Dec 05, 2022, Mon, 17:00"
495,drayton valley,-1.1836,136.0816,24.0,100,100,2.06,ID,"Dec 05, 2022, Mon, 17:00"
496,sioux lookout,43.6408,111.9435,-12.96,53,0,5.69,CN,"Dec 05, 2022, Mon, 17:00"
497,kawana waters,46.4389,26.4008,-1.51,99,100,1.37,RO,"Dec 05, 2022, Mon, 17:00"
498,lisakovsk,48.3833,7.4719,4.83,88,75,0.97,FR,"Dec 05, 2022, Mon, 17:00"
499,birjand,44.9807,8.8093,8.65,92,33,2.14,IT,"Dec 05, 2022, Mon, 17:00"
500,labutta,12.1473,-68.274,27.03,65,0,3.09,BQ,"Dec 05, 2022, Mon, 17:00"
501,ust-barguzin,-0.8996,-89.6065,21.31,79,55,4.94,EC,"Dec 05, 2022, Mon, 17:00"
502,uusikaupunki,61.0762,50.0845,-12.9,81,57,2.68,RU,"Dec 05, 2022, Mon, 17:00"
503,narasannapeta,61.1145,10.467,-8.68,91,95,1.81,NO,"Dec 05, 2022, Mon, 17:00"
504,griffith,-11.8913,-75.3149,12.84,60,86,2.94,PE,"Dec 05, 2022, Mon, 17:00"
505,bangkalan,39.7733,98.2891,-8.51,79,100,0.73,CN,"Dec 05, 2022, Mon, 17:00"
506,si sa ket,-9.5484,16.3475,17.08,97,57,1.66,AO,"Dec 05, 2022, Mon, 17:00"
507,antofagasta,-3.5459,118.9607,25.11,86,98,1.92,ID,"Dec 05, 2022, Mon, 17:00"
508,pionki,4.4194,-7.3604,25.82,85,93,2.39,CI,"Dec 05, 2022, Mon, 17:00"
509,cortes,43.9377,15.4478,14.92,81,63,6.33,HR,"Dec 05, 2022, Mon, 17:00"
510,ascension,20.4152,104.0474,13.44,92,97,1.03,LA,"Dec 05, 2022, Mon, 17:00"
511,kodiak,11.2868,51.078,23.66,73,58,3.4,SO,"Dec 05, 2022, Mon, 17:00"
512,turinsk,-13.4583,25.8315,16.51,83,92,2.0,ZM,"Dec 05, 2022, Mon, 17:00"
513,kosa,66.678,34.3376,-3.94,95,100,6.67,RU,"Dec 05, 2022, Mon, 17:00"
514,endicott,25.148,62.3255,22.87,63,0,3.77,PK,"Dec 05, 2022, Mon, 17:00"
515,biak,14.9191,-23.5145,22.36,68,75,3.6,CV,"Dec 05, 2022, Mon, 17:00"
516,erenhot,38.5207,102.186,-5.28,57,89,1.74,CN,"Dec 05, 2022, Mon, 17:00"
517,asau,61.6808,96.383,-17.55,97,92,2.43,RU,"Dec 05, 2022, Mon, 17:00"
518,saint-pierre,41.4971,2.3214,12.22,83,0,1.54,ES,"Dec 05, 2022, Mon, 17:00"
519,sale,39.4101,-74.3646,7.79,75,0,0.0,US,"Dec 05, 2022, Mon, 17:00"
520,kralendijk,-10.6106,150.6619,27.69,73,85,2.41,PG,"Dec 05, 2022, Mon, 17:00"
521,puerto baquerizo moreno,18.4408,1.4075,26.33,14,100,4.95,ML,"Dec 05, 2022, Mon, 17:00"
522,vizinga,3.7572,72.9689,26.54,76,96,2.45,MV,"Dec 05, 2022, Mon, 17:00"
523,lillehammer,7.9807,49.8188,25.1,72,88,7.38,SO,"Dec 05, 2022, Mon, 17:00"
524,nueve de julio,20.9101,70.3653,21.22,38,0,5.06,IN,"Dec 05, 2022, Mon, 17:00"
525,jiayuguan,6.5047,4.784,24.91,94,18,1.43,NG,"Dec 05, 2022, Mon, 17:00"
526,malanje,69.6489,18.9551,0.95,93,75,3.6,NO,"Dec 05, 2022, Mon, 17:00"
527,majene,51.3814,-2.3597,7.14,92,100,4.74,GB,"Dec 05, 2022, Mon, 17:00"
528,severobaykalsk,68.055,166.4449,-23.48,70,100,2.79,RU,"Dec 05, 2022, Mon, 17:00"
529,tabou,29.1403,21.2975,17.84,33,2,3.7,LY,"Dec 05, 2022, Mon, 17:00"
530,biograd na moru,39.1502,-123.2078,13.02,76,75,2.06,US,"Dec 05, 2022, Mon, 17:00"
531,xam nua,51.5735,139.8427,-19.17,86,98,3.25,RU,"Dec 05, 2022, Mon, 17:00"
532,bargal,15.8693,-97.0726,29.84,58,0,1.54,MX,"Dec 05, 2022, Mon, 17:00"
533,kasempa,9.5217,-84.322,30.7,77,45,1.4,CR,"Dec 05, 2022, Mon, 17:00"
534,umba,35.082,43.1017,14.28,46,80,2.25,IQ,"Dec 05, 2022, Mon, 17:00"
535,gwadar,56.2565,34.3286,-10.12,88,100,3.98,RU,"Dec 05, 2022, Mon, 17:00"
536,praia,54.9418,20.1551,-1.22,91,100,4.95,RU,"Dec 05, 2022, Mon, 17:00"
537,jinchang,-46.1323,167.6908,9.99,77,93,2.36,NZ,"Dec 05, 2022, Mon, 17:00"
538,baykit,50.8285,-4.5469,7.0,89,100,2.68,GB,"Dec 05, 2022, Mon, 17:00"
539,teya,43.1203,6.1302,11.32,74,0,2.06,FR,"Dec 05, 2022, Mon, 17:00"
540,brigantine,18.622,-100.3485,27.82,33,0,1.47,MX,"Dec 05, 2022, Mon, 17:00"
541,samarai,39.9208,32.854,4.06,84,0,2.06,TR,"Dec 05, 2022, Mon, 17:00"
542,kidal,-15.5121,167.1784,29.35,60,88,2.28,VU,"Dec 05, 2022, Mon, 17:00"
543,uyemskiy,19.0312,-97.0097,20.18,69,2,1.96,MX,"Dec 05, 2022, Mon, 17:00"
544,bur gabo,-9.8699,-56.0835,21.41,99,100,1.37,BR,"Dec 05, 2022, Mon, 17:00"
545,mahibadhoo,6.3542,10.2372,17.95,37,11,1.4,CM,"Dec 05, 2022, Mon, 17:00"
546,eyl,-2.9585,-44.042,28.95,76,39,2.62,BR,"Dec 05, 2022, Mon, 17:00"
547,veraval,65.7934,87.9589,-3.84,95,100,6.74,RU,"Dec 05, 2022, Mon, 17:00"
548,okitipupa,-40.8084,-62.9947,29.46,33,61,6.27,AR,"Dec 05, 2022, Mon, 17:00"
549,stekolnyy,53.5852,-116.4443,-13.97,82,100,3.44,CA,"Dec 05, 2022, Mon, 17:00"
550,tromso,62.5128,155.7824,-29.28,100,98,1.87,RU,"Dec 05, 2022, Mon, 17:00"
551,bath,60.3452,102.2809,-12.04,89,100,5.57,RU,"Dec 05, 2022, Mon, 17:00"
552,bilibino,35.2032,33.0605,12.21,75,5,1.07,CY,"Dec 05, 2022, Mon, 17:00"
553,awjilah,53.8319,80.3406,-22.64,100,25,1.69,RU,"Dec 05, 2022, Mon, 17:00"
554,ukiah,69.3218,16.1247,3.03,87,100,13.38,NO,"Dec 05, 2022, Mon, 17:00"
555,sofiysk,51.286,91.5828,-30.53,95,14,0.77,RU,"Dec 05, 2022, Mon, 17:00"
556,puerto escondido,9.8638,126.1003,27.4,78,73,4.43,PH,"Dec 05, 2022, Mon, 17:00"
557,parrita,-31.4299,152.9104,24.91,63,69,4.69,AU,"Dec 05, 2022, Mon, 17:00"
558,rawah,32.6768,71.2812,15.83,34,65,1.07,PK,"Dec 05, 2022, Mon, 17:00"
559,rzhev,32.6768,71.2812,15.83,34,65,1.07,PK,"Dec 05, 2022, Mon, 17:00"
560,svetlogorsk,32.6768,71.2812,15.83,34,65,1.07,PK,"Dec 05, 2022, Mon, 17:00"
561,tuatapere,32.6768,71.2812,15.83,34,65,1.07,PK,"Dec 05, 2022, Mon, 17:00"
562,bud,32.6768,71.2812,15.83,34,65,1.07,PK,"Dec 05, 2022, Mon, 17:00"
563,hyeres,32.6768,71.2812,15.83,34,65,1.07,PK,"Dec 05, 2022, Mon, 17:00"
564,coahuayana,32.6768,71.2812,15.83,34,65,1.07,PK,"Dec 05, 2022, Mon, 17:00"
565,ankara,32.6768,71.2812,15.83,34,65,1.07,PK,"Dec 05, 2022, Mon, 17:00"
566,luganville,32.6768,71.2812,15.83,34,65,1.07,PK,"Dec 05, 2022, Mon, 17:00"
567,tomatlan,32.6768,71.2812,15.83,34,65,1.07,PK,"Dec 05, 2022, Mon, 17:00"
568,alta floresta,32.6768,71.2812,15.83,34,65,1.07,PK,"Dec 05, 2022, Mon, 17:00"
569,mme,32.6768,71.2812,15.83,34,65,1.07,PK,"Dec 05, 2022, Mon, 17:00"
570,mocambique,32.6768,71.2812,15.83,34,65,1.07,PK,"Dec 05, 2022, Mon, 17:00"
571,turukhansk,32.6768,71.2812,15.83,34,65,1.07,PK,"Dec 05, 2022, Mon, 17:00"
572,viedma,32.6768,71.2812,15.83,34,65,1.07,PK,"Dec 05, 2022, Mon, 17:00"
573,edson,32.6768,71.2812,15.83,34,65,1.07,PK,"Dec 05, 2022, Mon, 17:00"
574,omsukchan,32.6768,71.2812,15.83,34,65,1.07,PK,"Dec 05, 2022, Mon, 17:00"
575,vanavara,32.6768,71.2812,15.83,34,65,1.07,PK,"Dec 05, 2022, Mon, 17:00"
576,kyra,32.6768,71.2812,15.83,34,65,1.07,PK,"Dec 05, 2022, Mon, 17:00"
577,pankrushikha,32.6768,71.2812,15.83,34,65,1.07,PK,"Dec 05, 2022, Mon, 17:00"
578,andenes,32.6768,71.2812,15.83,34,65,1.07,PK,"Dec 05, 2022, Mon, 17:00"
579,chadan,32.6768,71.2812,15.83,34,65,1.07,PK,"Dec 05, 2022, Mon, 17:00"
580,pilar,32.6768,71.2812,15.83,34,65,1.07,PK,"Dec 05, 2022, Mon, 17:00"
581,vagay,32.6768,71.2812,15.83,34,65,1.07,PK,"Dec 05, 2022, Mon, 17:00"
582,port macquarie,32.6768,71.2812,15.83,34,65,1.07,PK,"Dec 05, 2022, Mon, 17:00"
583,isa khel,32.6768,71.2812,15.83,34,65,1.07,PK,"Dec 05, 2022, Mon, 17:00"
